<?xml version="1.0" encoding="UTF-8"?>
<kml xmlns="http://www.opengis.net/kml/2.2">
  <Document>
    <Placemark>
      <name>Get out the paint rollers with the looong handles</name>
      <description>Mon, Jul 05 2021</description>
      <Point>
        <coordinates>
          -122.145004, 37.739279
        </coordinates>
      </Point>
    </Placemark>
    <Placemark>
      <name>Someones trying to get rid of a key chain collection</name>
      <description>Thu, Jul 08 2021</description>
      <Point>
        <coordinates>
          -122.150098, 37.738141
        </coordinates>
      </Point>
    </Placemark>
    <Placemark>
      <name>4th of July ornaments</name>
      <description>Fri, Jul 09 2021</description>
      <Point>
        <coordinates>
          -122.137456, 37.736253
        </coordinates>
      </Point>
    </Placemark>
    <Placemark>
      <name>They got out the looong handled paint rollers</name>
      <description>Sun, Jul 11 2021</description>
      <Point>
        <coordinates>
          -122.145004, 37.739279
        </coordinates>
      </Point>
    </Placemark>
    <Placemark>
      <name>Maybe they oughta stop mowing this</name>
      <description>Tue, Jul 13 2021</description>
      <Point>
        <coordinates>
          -122.150969, 37.737831
        </coordinates>
      </Point>
    </Placemark>
    <Placemark>
      <name>This limo has seen better days</name>
      <description>Mon, Jul 19 2021</description>
      <Point>
        <coordinates>
          -122.143646, 37.739167
        </coordinates>
      </Point>
    </Placemark>
    <Placemark>
      <name>Maplelike tree seeds</name>
      <description>Wed, Jul 21 2021</description>
      <Point>
        <coordinates>
          -122.151386, 37.738563
        </coordinates>
      </Point>
    </Placemark>
    <Placemark>
      <name>Garden hose connected to hydrant</name>
      <description>Sun, Jul 25 2021</description>
      <Point>
        <coordinates>
          -122.131844, 37.735630
        </coordinates>
      </Point>
    </Placemark>
    <Placemark>
      <name>Hill for sale</name>
      <description>Tue, Jul 27 2021</description>
      <Point>
        <coordinates>
          -122.132581, 37.735071
        </coordinates>
      </Point>
    </Placemark>
    <Placemark>
      <name>Random hightension electrical wire</name>
      <description>Fri, Aug 06 2021</description>
      <Point>
        <coordinates>
          -122.142837, 37.738577
        </coordinates>
      </Point>
    </Placemark>
    <Placemark>
      <name>Confusing car decal</name>
      <description>Mon, Aug 09 2021</description>
      <Point>
        <coordinates>
          -122.144300, 37.739782
        </coordinates>
      </Point>
    </Placemark>
    <Placemark>
      <name>Asymmetrical roof line</name>
      <description>Wed, Aug 11 2021</description>
      <Point>
        <coordinates>
          -122.138305, 37.736298
        </coordinates>
      </Point>
    </Placemark>
    <Placemark>
      <name>Scared frog</name>
      <description>Sat, Aug 14 2021</description>
      <Point>
        <coordinates>
          -122.130820, 37.734414
        </coordinates>
      </Point>
    </Placemark>
    <Placemark>
      <name>Tortoise bookends</name>
      <description>Tue, Aug 17 2021</description>
      <Point>
        <coordinates>
          -122.133519, 37.735240
        </coordinates>
      </Point>
    </Placemark>
    <Placemark>
      <name>Telephone pole transfer</name>
      <description>Mon, Aug 30 2021</description>
      <Point>
        <coordinates>
          -122.144823, 37.739503
        </coordinates>
      </Point>
    </Placemark>
    <Placemark>
      <name>This cars gonna blow</name>
      <description>Sat, Sep 04 2021</description>
      <Point>
        <coordinates>
          -122.161863, 37.731126
        </coordinates>
      </Point>
    </Placemark>
    <Placemark>
      <name>Does this mean what I think it does</name>
      <description>Mon, Sep 06 2021</description>
      <Point>
        <coordinates>
          -122.134694, 37.736605
        </coordinates>
      </Point>
    </Placemark>
    <Placemark>
      <name>Winding sandy trail</name>
      <description>Tue, Sep 14 2021</description>
      <Point>
        <coordinates>
          -122.143448, 37.739012
        </coordinates>
      </Point>
    </Placemark>
    <Placemark>
      <name>Freebies for the young and old</name>
      <description>Tue, Sep 21 2021</description>
      <Point>
        <coordinates>
          -122.136430, 37.736732
        </coordinates>
      </Point>
    </Placemark>
    <Placemark>
      <name>Bicycle ramps</name>
      <description>Sat, Sep 25 2021</description>
      <Point>
        <coordinates>
          -122.15000537.734598
        </coordinates>
      </Point>
    </Placemark>
    <Placemark>
      <name>Rustic stairway</name>
      <description>Sun, Sep 26 2021</description>
      <Point>
        <coordinates>
          -122.131810, 37.734611
        </coordinates>
      </Point>
    </Placemark>
    <Placemark>
      <name>I assume this is for a small dog</name>
      <description>Wed, Sep 29 2021</description>
      <Point>
        <coordinates>
          -122.136891, 37.736148
        </coordinates>
      </Point>
    </Placemark>
    <Placemark>
      <name>Gotta sick fish</name>
      <description>Fri, Oct 01 2021</description>
      <Point>
        <coordinates>
          -122.138205, 37.735526
        </coordinates>
      </Point>
    </Placemark>
    <Placemark>
      <name>Halloween already</name>
      <description>Mon, Oct 04 2021</description>
      <Point>
        <coordinates>
          -122.148272, 37.738645
        </coordinates>
      </Point>
    </Placemark>
    <Placemark>
      <name>Olympic rings lawn decoration</name>
      <description>Sat, Oct 09 2021</description>
      <Point>
        <coordinates>
        </coordinates>
      </Point>
    </Placemark>
    <Placemark>
      <name>Restaurant Halloween decorations</name>
      <description>Wed, Oct 13 2021</description>
      <Point>
        <coordinates>
          -122.161055, 37.731777
        </coordinates>
      </Point>
    </Placemark>
    <Placemark>
      <name>Restaurant Halloween decorations 471</name>
      <description>Wed, Oct 13 2021</description>
      <Point>
        <coordinates>
          -122.161397, 37.732288
        </coordinates>
      </Point>
    </Placemark>
    <Placemark>
      <name>Grape arbor</name>
      <description>Thu, Oct 14 2021</description>
      <Point>
        <coordinates>
          -122.156367, 37.736870
        </coordinates>
      </Point>
    </Placemark>
    <Placemark>
      <name>Curved roof lines</name>
      <description>Sat, Oct 16 2021</description>
      <Point>
        <coordinates>
          -122.157974, 37.736290
        </coordinates>
      </Point>
    </Placemark>
    <Placemark>
      <name>A very LBGT Halloween to you</name>
      <description>Mon, Oct 18 2021</description>
      <Point>
        <coordinates>
          -122.154879, 37.737574
        </coordinates>
      </Point>
    </Placemark>
    <Placemark>
      <name>Tree spiders</name>
      <description>Wed, Oct 20 2021</description>
      <Point>
        <coordinates>
          -122.133759, 37.735624
        </coordinates>
      </Point>
    </Placemark>
    <Placemark>
      <name>Minimalist Halloween decoration</name>
      <description>Fri, Oct 22 2021</description>
      <Point>
        <coordinates>
          -122.137278, 37.736197
        </coordinates>
      </Point>
    </Placemark>
    <Placemark>
      <name>Find the fleshandblood animal</name>
      <description>Sat, Oct 30 2021</description>
      <Point>
        <coordinates>
          -122.151033, 37.737790
        </coordinates>
      </Point>
    </Placemark>
    <Placemark>
      <name>Leftover Halloween decorations</name>
      <description>Tue, Nov 02 2021</description>
      <Point>
        <coordinates>
          -122.150839, 37.737876
        </coordinates>
      </Point>
    </Placemark>
    <Placemark>
      <name>Orange and black flamingos</name>
      <description>Wed, Nov 03 2021</description>
      <Point>
        <coordinates>
          -122.147224, 37.738925
        </coordinates>
      </Point>
    </Placemark>
    <Placemark>
      <name>Angular tree</name>
      <description>Tue, Nov 09 2021</description>
      <Point>
        <coordinates>
          -122.130821, 37.734867
        </coordinates>
      </Point>
    </Placemark>
    <Placemark>
      <name>Anthropomorphic security light</name>
      <description>Tue, Nov 23 2021</description>
      <Point>
        <coordinates>
          -122.130802, 37.734421
        </coordinates>
      </Point>
    </Placemark>
    <Placemark>
      <name>Asymmetrical tree</name>
      <description>Sun, Nov 28 2021</description>
      <Point>
        <coordinates>
          -122.132664, 37.735020
        </coordinates>
      </Point>
    </Placemark>
    <Placemark>
      <name>Thanksgiving must be over</name>
      <description>Mon, Nov 29 2021</description>
      <Point>
        <coordinates>
          -122.143392, 37.738897
        </coordinates>
      </Point>
    </Placemark>
    <Placemark>
      <name>Trees turning color</name>
      <description>Sat, Dec 04 2021</description>
      <Point>
        <coordinates>
          -122.149655, 37.733871
        </coordinates>
      </Point>
    </Placemark>
    <Placemark>
      <name>Rudolph the Rednosed Rogue</name>
      <description>Sun, Dec 19 2021</description>
      <Point>
        <coordinates>
          -122.131603, 37.734522
        </coordinates>
      </Point>
    </Placemark>
    <Placemark>
      <name>The Lonely Pincushion</name>
      <description>Tue, Dec 21 2021</description>
      <Point>
        <coordinates>
          -122.136704, 37.735918
        </coordinates>
      </Point>
    </Placemark>
    <Placemark>
      <name>Halloween dog with Christmas bow</name>
      <description>Wed, Dec 22 2021</description>
      <Point>
        <coordinates>
        </coordinates>
      </Point>
    </Placemark>
    <Placemark>
      <name>Why so sad pumpkin</name>
      <description>Fri, Dec 31 2021</description>
      <Point>
        <coordinates>
          -122.150734, 37.737925
        </coordinates>
      </Point>
    </Placemark>
  </Document>
</kml>