<?xml version="1.0" encoding="UTF-8"?>
<kml xmlns="http://www.opengis.net/kml/2.2">
  <Document>
    <Placemark>
      <name>Someones got a leak</name>
      <description>Mon, Jan 03 2022</description>
      <Point>
        <coordinates>
          -122.144454, 37.739702
        </coordinates>
      </Point>
    </Placemark>
    <Placemark>
      <name>Solar powered birdbath fountain</name>
      <description>Mon, Jan 10 2022</description>
      <Point>
        <coordinates>
          -122.133747, 37.735999
        </coordinates>
      </Point>
    </Placemark>
    <Placemark>
      <name>Bed of leaves</name>
      <description>Sun, Jan 16 2022</description>
      <Point>
        <coordinates>
          -122.147234, 37.738893
        </coordinates>
      </Point>
    </Placemark>
    <Placemark>
      <name>Its been windy here</name>
      <description>Sat, Jan 22 2022</description>
      <Point>
        <coordinates>
          -122.143668, 37.739234
        </coordinates>
      </Point>
    </Placemark>
    <Placemark>
      <name>Kitty in a drainpipe</name>
      <description>Mon, Jan 24 2022</description>
      <Point>
        <coordinates>
          -122.133778, 37.736231
        </coordinates>
      </Point>
    </Placemark>
    <Placemark>
      <name>Not an official Caltrans sign</name>
      <description>Wed, Jan 26 2022</description>
      <Point>
        <coordinates>
          -122.140604, 37.737650
        </coordinates>
      </Point>
    </Placemark>
    <Placemark>
      <name>Not an official Caltrans sign 227</name>
      <description>Wed, Jan 26 2022</description>
      <Point>
        <coordinates>
        </coordinates>
      </Point>
    </Placemark>
    <Placemark>
      <name>Snowman bucket</name>
      <description>Sun, Feb 06 2022</description>
      <Point>
        <coordinates>
          -122.134192, 37.736417
        </coordinates>
      </Point>
    </Placemark>
    <Placemark>
      <name>Sign in need of a proofreader</name>
      <description>Fri, Feb 11 2022</description>
      <Point>
        <coordinates>
          -122.160219, 37.730861
        </coordinates>
      </Point>
    </Placemark>
    <Placemark>
      <name>When one Buddha is not enough</name>
      <description>Sun, Feb 13 2022</description>
      <Point>
        <coordinates>
          -122.154393, 37.737744
        </coordinates>
      </Point>
    </Placemark>
    <Placemark>
      <name>Remnants of an antivandalism plywood screen</name>
      <description>Sun, Feb 13 2022</description>
      <Point>
        <coordinates>
          -122.160761, 37.731244
        </coordinates>
      </Point>
    </Placemark>
    <Placemark>
      <name>Its 302 You cant miss it</name>
      <description>Mon, Feb 14 2022</description>
      <Point>
        <coordinates>
          -122.162663, 37.733946
        </coordinates>
      </Point>
    </Placemark>
    <Placemark>
      <name>What style is this door</name>
      <description>Wed, Feb 16 2022</description>
      <Point>
        <coordinates>
          -122.158751, 37.735931
        </coordinates>
      </Point>
    </Placemark>
    <Placemark>
      <name>Farms In San Leandro</name>
      <description>Wed, Feb 23 2022</description>
      <Point>
        <coordinates>
          -122.159158, 37.729635
        </coordinates>
      </Point>
    </Placemark>
    <Placemark>
      <name>Turret vs chimney</name>
      <description>Thu, Feb 24 2022</description>
      <Point>
        <coordinates>
          -122.156047, 37.730526
        </coordinates>
      </Point>
    </Placemark>
    <Placemark>
      <name>Silver orange</name>
      <description>Fri, Feb 25 2022</description>
      <Point>
        <coordinates>
          -122.138634, 37.735699
        </coordinates>
      </Point>
    </Placemark>
    <Placemark>
      <name>Cat Cactus</name>
      <description>Sat, Feb 26 2022</description>
      <Point>
        <coordinates>
          -122.148886, 37.735285
        </coordinates>
      </Point>
    </Placemark>
    <Placemark>
      <name>Wellhead in sidewalk</name>
      <description>Sun, Feb 27 2022</description>
      <Point>
        <coordinates>
          -122.163821, 37.734607
        </coordinates>
      </Point>
    </Placemark>
    <Placemark>
      <name>The Lonely Goldfish</name>
      <description>Tue, Mar 01 2022</description>
      <Point>
        <coordinates>
          -122.160818, 37.734970
        </coordinates>
      </Point>
    </Placemark>
    <Placemark>
      <name>Turret topiary</name>
      <description>Wed, Mar 02 2022</description>
      <Point>
        <coordinates>
          -122.146779, 37.734260
        </coordinates>
      </Point>
    </Placemark>
    <Placemark>
      <name>Yard sculpture</name>
      <description>Thu, Mar 03 2022</description>
      <Point>
        <coordinates>
          -122.162051, 37.730641
        </coordinates>
      </Point>
    </Placemark>
    <Placemark>
      <name>Mysterious sign</name>
      <description>Fri, Mar 04 2022</description>
      <Point>
        <coordinates>
          -122.159869, 37.735379
        </coordinates>
      </Point>
    </Placemark>
    <Placemark>
      <name>Cracked laptop on a cracked window</name>
      <description>Sat, Mar 05 2022</description>
      <Point>
        <coordinates>
          -122.162488, 37.733700
        </coordinates>
      </Point>
    </Placemark>
    <Placemark>
      <name>House numbers on 500 block of Kenilworth</name>
      <description>Sun, Mar 06 2022</description>
      <Point>
        <coordinates>
          -122.150107, 37.735114
        </coordinates>
      </Point>
    </Placemark>
    <Placemark>
      <name>Crow surveying its domain</name>
      <description>Mon, Mar 07 2022</description>
      <Point>
        <coordinates>
          -122.147092, 37.733174
        </coordinates>
      </Point>
    </Placemark>
    <Placemark>
      <name>Intertwined tree roots</name>
      <description>Tue, Mar 08 2022</description>
      <Point>
        <coordinates>
          -122.141870, 37.732455
        </coordinates>
      </Point>
    </Placemark>
    <Placemark>
      <name>Nice graffiti</name>
      <description>Wed, Mar 09 2022</description>
      <Point>
        <coordinates>
          -122.138288, 37.730645
        </coordinates>
      </Point>
    </Placemark>
    <Placemark>
      <name>Who ya gonna call</name>
      <description>Thu, Mar 10 2022</description>
      <Point>
        <coordinates>
          -122.137648, 37.735383
        </coordinates>
      </Point>
    </Placemark>
    <Placemark>
      <name>Unusual place for razor wire</name>
      <description>Sat, Mar 12 2022</description>
      <Point>
        <coordinates>
          -122.141916, 37.746781
        </coordinates>
      </Point>
    </Placemark>
    <Placemark>
      <name>Nobodys gonna steal my mailbox</name>
      <description>Sun, Mar 13 2022</description>
      <Point>
        <coordinates>
          -122.144265, 37.746129
        </coordinates>
      </Point>
    </Placemark>
    <Placemark>
      <name>Who needs a jungle gym</name>
      <description>Tue, Mar 15 2022</description>
      <Point>
        <coordinates>
          -122.149063, 37.740749
        </coordinates>
      </Point>
    </Placemark>
    <Placemark>
      <name>Metal grids on house</name>
      <description>Wed, Mar 16 2022</description>
      <Point>
        <coordinates>
          -122.147199, 37.741518
        </coordinates>
      </Point>
    </Placemark>
    <Placemark>
      <name>Where the sidewalk ends</name>
      <description>Thu, Mar 17 2022</description>
      <Point>
        <coordinates>
          -122.146960, 37.742872
        </coordinates>
      </Point>
    </Placemark>
    <Placemark>
      <name>Picture of stylish doctor</name>
      <description>Fri, Mar 18 2022</description>
      <Point>
        <coordinates>
          -122.147838, 37.743508
        </coordinates>
      </Point>
    </Placemark>
    <Placemark>
      <name>Heck of a house color</name>
      <description>Sat, Mar 19 2022</description>
      <Point>
        <coordinates>
          -122.139707, 37.747350
        </coordinates>
      </Point>
    </Placemark>
    <Placemark>
      <name>House ostone</name>
      <description>Sun, Mar 20 2022</description>
      <Point>
        <coordinates>
          -122.153040, 37.720474
        </coordinates>
      </Point>
    </Placemark>
    <Placemark>
      <name>No dog poop please</name>
      <description>Tue, Mar 22 2022</description>
      <Point>
        <coordinates>
          -122.150423, 37.735911
        </coordinates>
      </Point>
    </Placemark>
    <Placemark>
      <name>Different form of property damage</name>
      <description>Wed, Mar 23 2022</description>
      <Point>
        <coordinates>
          -122.152896, 37.719670
        </coordinates>
      </Point>
    </Placemark>
    <Placemark>
      <name>I didnt need to sit on the porch anyway</name>
      <description>Thu, Mar 24 2022</description>
      <Point>
        <coordinates>
          -122.152259, 37.718728
        </coordinates>
      </Point>
    </Placemark>
    <Placemark>
      <name>Crate table chain</name>
      <description>Sun, Mar 27 2022</description>
      <Point>
        <coordinates>
          -122.146972, 37.741784
        </coordinates>
      </Point>
    </Placemark>
    <Placemark>
      <name>Wrought iron fence</name>
      <description>Mon, Mar 28 2022</description>
      <Point>
        <coordinates>
          -122.148199, 37.745435
        </coordinates>
      </Point>
    </Placemark>
    <Placemark>
      <name>The Lonely Gate</name>
      <description>Tue, Mar 29 2022</description>
      <Point>
        <coordinates>
          -122.162315, 37.734185
        </coordinates>
      </Point>
    </Placemark>
    <Placemark>
      <name>Elegant Little Free Library</name>
      <description>Wed, Mar 30 2022</description>
      <Point>
        <coordinates>
          -122.164214, 37.728608
        </coordinates>
      </Point>
    </Placemark>
    <Placemark>
      <name>Strange street markings</name>
      <description>Thu, Mar 31 2022</description>
      <Point>
        <coordinates>
          -122.161576, 37.729855
        </coordinates>
      </Point>
    </Placemark>
  </Document>
</kml>